{
    "method": "get",
    "endpoint": "api/external/location/list",
    "requestIdentityHash": "905e9730abd43468eca8fc26f8412ed44e8b01f4",
    "requestIdentity": {
        "method": "get",
        "endpoint": "api/external/location/list",
        "params": [],
        "headers": []
    },
    "response": {
        "data": [
            {
                "city": "Ciudad de México",
                "country": "Mexico",
                "details": null,
                "google_place_id": "ChIJLexnSzT_0YURYM7AoB2UTQw",
                "id": 4,
                "iso_3166_1_alpha_2_code": "MX",
                "latitude": 19.4275819,
                "location_type": "Physical",
                "location_type_id": 1,
                "longitude": -99.1652852,
                "name": "Mexico City",
                "postal_code": "06600",
                "state": "Ciudad de México",
                "zipcode": "06600"
            },
            {
                "city": "Vicente López",
                "country": "Argentina",
                "details": null,
                "google_place_id": "ChIJiWDCNiHLvJURMSILX7uymJo",
                "id": 5,
                "iso_3166_1_alpha_2_code": "AR",
                "latitude": -34.5252031,
                "location_type": "Physical",
                "location_type_id": 1,
                "longitude": -58.4723474,
                "name": "Argentina",
                "postal_code": "B1638BEV",
                "state": "Provincia de Buenos Aires",
                "zipcode": "B1638BEV"
            },
            {
                "city": "Barranquilla",
                "country": "Colombia",
                "details": null,
                "google_place_id": "ChIJwfYUnaYt9I4Re4wo_9oKo-4",
                "id": 6,
                "iso_3166_1_alpha_2_code": "CO",
                "latitude": 11.0059773,
                "location_type": "Physical",
                "location_type_id": 1,
                "longitude": -74.8118572,
                "name": "Colombia",
                "postal_code": "080001",
                "state": "Atlántico",
                "zipcode": "080001"
            },
            {
                "city": "Heredia",
                "country": "Costa Rica",
                "details": null,
                "google_place_id": "ChIJTSTVTT77oI8RwNqee6DGGeQ",
                "id": 8,
                "iso_3166_1_alpha_2_code": "CR",
                "latitude": 9.980702,
                "location_type": "Physical",
                "location_type_id": 1,
                "longitude": -84.1601651,
                "name": "Costa Rica",
                "postal_code": "40104",
                "state": "Heredia",
                "zipcode": "40104"
            },
            {
                "city": "Montevideo",
                "country": "Uruguay",
                "details": null,
                "google_place_id": "ChIJH9yITfl_n5URUhRPtQjlR3w",
                "id": 9,
                "iso_3166_1_alpha_2_code": "UY",
                "latitude": -34.8770884,
                "location_type": "Physical",
                "location_type_id": 1,
                "longitude": -56.2084154,
                "name": "Uruguay",
                "postal_code": "11800",
                "state": "Departamento de Montevideo",
                "zipcode": "11800"
            },
            {
                "city": "Guadalajara",
                "country": "Mexico",
                "details": null,
                "google_place_id": "ChIJhU_axzauKIQRfXlxHkZqIrY",
                "id": 10,
                "iso_3166_1_alpha_2_code": "MX",
                "latitude": 20.7027216,
                "location_type": "Physical",
                "location_type_id": 1,
                "longitude": -103.3768233,
                "name": "Mexico",
                "postal_code": "44630",
                "state": "Jalisco",
                "zipcode": "44630"
            },
            {
                "city": "San Lorenzo El Cubo",
                "country": "Guatemala",
                "details": null,
                "google_place_id": "EiVSTi0xNCwgU2FuIExvcmVuem8gRWwgQ3VibywgR3VhdGVtYWxhIi4qLAoUChIJ2QpUeYQdiYURy5jfqFy5jSESFAoSCXnoSPTAEYmFEU24Sr6fTBt9",
                "id": 15,
                "iso_3166_1_alpha_2_code": "GT",
                "latitude": 14.5354742,
                "location_type": "Physical",
                "location_type_id": 1,
                "longitude": -90.7679735,
                "name": "Guatemala",
                "postal_code": "03012",
                "state": "Sacatepéquez",
                "zipcode": "03012"
            },
            {
                "city": "Centro",
                "country": "Brazil",
                "details": null,
                "google_place_id": "ChIJo1nVj9yBmQARtbswAZSgyIE",
                "id": 17,
                "iso_3166_1_alpha_2_code": "BR",
                "latitude": -22.9144474,
                "location_type": "Physical",
                "location_type_id": 1,
                "longitude": -43.166391,
                "name": "Brazil",
                "postal_code": "20021-340",
                "state": "Rio de Janeiro",
                "zipcode": "20021-340"
            },
            {
                "city": "Vitacura",
                "country": "Chile",
                "details": null,
                "google_place_id": "ChIJsV-h1zfPYpYRomgV_9FuG2E",
                "id": 18,
                "iso_3166_1_alpha_2_code": "CL",
                "latitude": -33.4027911,
                "location_type": "Physical",
                "location_type_id": 1,
                "longitude": -70.5975735,
                "name": "Chile",
                "postal_code": "7630487",
                "state": "Región Metropolitana",
                "zipcode": "7630487"
            },
            {
                "city": "Guayaquil",
                "country": "Ecuador",
                "details": null,
                "google_place_id": "ChIJF_FSU05zLZARoXQYCvVG-co",
                "id": 19,
                "iso_3166_1_alpha_2_code": "EC",
                "latitude": -2.1796456,
                "location_type": "Physical",
                "location_type_id": 1,
                "longitude": -79.9445074,
                "name": "Ecuador",
                "postal_code": "090616",
                "state": "Guayas",
                "zipcode": "090616"
            },
            {
                "city": "La Habana",
                "country": "Cuba",
                "details": null,
                "google_place_id": "ChIJ4QD2vUx3zYgRYA13Gn5NKU4",
                "id": 20,
                "iso_3166_1_alpha_2_code": "CU",
                "latitude": 23.133865,
                "location_type": "Physical",
                "location_type_id": 1,
                "longitude": -82.3585654,
                "name": "Cuba",
                "postal_code": "10400",
                "state": "La Habana",
                "zipcode": "10400"
            },
            {
                "city": "San Juan",
                "country": "Puerto Rico",
                "details": null,
                "google_place_id": "ChIJbxlo4m9oA4wR3FqTXA9_a60",
                "id": 21,
                "iso_3166_1_alpha_2_code": "PR",
                "latitude": 18.4153108,
                "location_type": "Physical",
                "location_type_id": 1,
                "longitude": -66.0593509,
                "name": "Puerto Rico",
                "postal_code": "00901",
                "state": "San Juan",
                "zipcode": "00901"
            },
            {
                "city": "Asunción",
                "country": "Paraguay",
                "details": null,
                "google_place_id": "EipBdi4gUmVww7pibGljYSBBcmdlbnRpbmEsIDAwMTQxMiwgUGFyYWd1YXkiLiosChQKEglxCztnX6hdlBEaKSzoeoc_oxIUChIJBeVRUpuoXZQR9Ra7jzoBlug",
                "id": 23,
                "iso_3166_1_alpha_2_code": "PY",
                "latitude": -25.2985112,
                "location_type": "Physical",
                "location_type_id": 1,
                "longitude": -57.5790793,
                "name": "Paraguay",
                "postal_code": "001412",
                "state": "Asunción",
                "zipcode": "001412"
            },
            {
                "city": "Los Ángeles",
                "country": "Estados Unidos",
                "details": null,
                "google_place_id": "ChIJE9on3F3HwoAR9AhGJW_fL-I",
                "id": 38,
                "iso_3166_1_alpha_2_code": null,
                "latitude": 34.0549076,
                "location_type": "Physical",
                "location_type_id": 1,
                "longitude": -118.242643,
                "name": "California",
                "postal_code": "90001",
                "state": "California",
                "zipcode": "90001"
            },
            {
                "city": "Nashville",
                "country": "Estados Unidos",
                "details": null,
                "google_place_id": "ChIJPZDrEzLsZIgRoNrpodC5P30",
                "id": 39,
                "iso_3166_1_alpha_2_code": null,
                "latitude": 36.1626638,
                "location_type": "Physical",
                "location_type_id": 1,
                "longitude": -86.7816016,
                "name": "Tennessee",
                "postal_code": "37201",
                "state": "Tennessee",
                "zipcode": "37201"
            },
            {
                "city": "Richmond",
                "country": "Estados Unidos",
                "details": null,
                "google_place_id": "ChIJ7cmZVwkRsYkRxTxC4m0-2L8",
                "id": 40,
                "iso_3166_1_alpha_2_code": null,
                "latitude": 37.5407246,
                "location_type": "Physical",
                "location_type_id": 1,
                "longitude": -77.4360481,
                "name": "Virginia",
                "postal_code": "23219",
                "state": "Virginia",
                "zipcode": "23219"
            },
            {
                "city": "Houston",
                "country": "Estados Unidos",
                "details": null,
                "google_place_id": "ChIJAYWNSLS4QIYROwVl894CDco",
                "id": 41,
                "iso_3166_1_alpha_2_code": null,
                "latitude": 29.7600771,
                "location_type": "Physical",
                "location_type_id": 1,
                "longitude": -95.3701108,
                "name": "Texas",
                "postal_code": "77002",
                "state": "Texas",
                "zipcode": "77002"
            },
            {
                "city": "Santo Domingo",
                "country": "República Dominicana",
                "details": null,
                "google_place_id": "ChIJq6V-EPGJr44RZMEVJ7iHxdY",
                "id": 43,
                "iso_3166_1_alpha_2_code": null,
                "latitude": 18.4626178,
                "location_type": "Physical",
                "location_type_id": 1,
                "longitude": -69.9360924,
                "name": "Dominican Republic",
                "postal_code": "10101",
                "state": "Distrito Nacional",
                "zipcode": "10101"
            },
            {
                "city": "Lima",
                "country": "Perú",
                "details": null,
                "google_place_id": "ChIJxz7uGfbFBZERSi5FzLlsIBQ",
                "id": 46,
                "iso_3166_1_alpha_2_code": "PE",
                "latitude": -12.0466888,
                "location_type": "Physical",
                "location_type_id": 1,
                "longitude": -77.0430886,
                "name": "Peru",
                "postal_code": "15001",
                "state": "Callao",
                "zipcode": "15001"
            },
            {
                "city": "La Paz",
                "country": "Bolivia",
                "details": null,
                "google_place_id": "ChIJD6T1BArfXpERs4pFtHb821c",
                "id": 47,
                "iso_3166_1_alpha_2_code": "BO",
                "latitude": -16.489689,
                "location_type": "Physical",
                "location_type_id": 1,
                "longitude": -68.1192936,
                "name": "Bolivia",
                "postal_code": "1000",
                "state": "Departamento de La Paz",
                "zipcode": "1000"
            },
            {
                "city": "Tegucigalpa",
                "country": "Honduras",
                "details": null,
                "google_place_id": "ChIJUT10v7qib48R08lqIDgiz2g",
                "id": 48,
                "iso_3166_1_alpha_2_code": "HN",
                "latitude": 14.065049,
                "location_type": "Physical",
                "location_type_id": 1,
                "longitude": -87.1715002,
                "name": "Honduras",
                "postal_code": "11101",
                "state": "Departamento de Francisco Morazán",
                "zipcode": "11101"
            },
            {
                "city": "Newark",
                "country": "Estados Unidos",
                "details": null,
                "google_place_id": "ChIJHQ6aMnBTwokRc-T-3CrcvOE",
                "id": 51,
                "iso_3166_1_alpha_2_code": null,
                "latitude": 40.7356284,
                "location_type": "Physical",
                "location_type_id": 1,
                "longitude": -74.1722128,
                "name": "New Jersey",
                "postal_code": "07102",
                "state": "Nueva Jersey",
                "zipcode": "07102"
            },
            {
                "city": "Detroit",
                "country": "Estados Unidos",
                "details": null,
                "google_place_id": "ChIJdR3LEAHKJIgR0sS5NU6Gdlc",
                "id": 83,
                "iso_3166_1_alpha_2_code": null,
                "latitude": 42.331427,
                "location_type": "Physical",
                "location_type_id": 1,
                "longitude": -83.0457538,
                "name": "Michigan",
                "postal_code": "48226",
                "state": "Míchigan",
                "zipcode": "48226"
            },
            {
                "city": "Indianápolis",
                "country": "Estados Unidos",
                "details": null,
                "google_place_id": "ChIJA2p5p_9Qa4gRfOq5QPadjtY",
                "id": 84,
                "iso_3166_1_alpha_2_code": null,
                "latitude": 39.76909,
                "location_type": "Physical",
                "location_type_id": 1,
                "longitude": -86.158018,
                "name": "Indiana",
                "postal_code": "46204",
                "state": "Indiana",
                "zipcode": "46204"
            },
            {
                "city": "Columbus",
                "country": "Estados Unidos",
                "details": null,
                "google_place_id": "ChIJcd6QucGJOIgRM7Wxz_hmMuQ",
                "id": 85,
                "iso_3166_1_alpha_2_code": null,
                "latitude": 39.9611755,
                "location_type": "Physical",
                "location_type_id": 1,
                "longitude": -82.9987942,
                "name": "Ohio",
                "postal_code": "43215",
                "state": "Ohio",
                "zipcode": "43215"
            },
            {
                "city": "Louisville",
                "country": "Estados Unidos",
                "details": null,
                "google_place_id": "ChIJEdVbsxoLaYgRMv1xICi009Q",
                "id": 86,
                "iso_3166_1_alpha_2_code": null,
                "latitude": 38.2468618,
                "location_type": "Physical",
                "location_type_id": 1,
                "longitude": -85.7663724,
                "name": "Kentucky",
                "postal_code": "40202",
                "state": "Kentucky",
                "zipcode": "40202"
            },
            {
                "city": "Birmingham",
                "country": "Estados Unidos",
                "details": null,
                "google_place_id": "ChIJ07-FWN8RiYgRzlS66gl0UCU",
                "id": 87,
                "iso_3166_1_alpha_2_code": null,
                "latitude": 33.5185892,
                "location_type": "Physical",
                "location_type_id": 1,
                "longitude": -86.8103567,
                "name": "Alabama",
                "postal_code": "35203",
                "state": "Alabama",
                "zipcode": "35203"
            },
            {
                "city": "Charleston",
                "country": "Estados Unidos",
                "details": null,
                "google_place_id": "ChIJOV0UiM4sT4gRCxvJBEeoYXY",
                "id": 88,
                "iso_3166_1_alpha_2_code": null,
                "latitude": 38.3498195,
                "location_type": "Physical",
                "location_type_id": 1,
                "longitude": -81.6326234,
                "name": "West Virgina",
                "postal_code": "25301",
                "state": "Virginia Occidental",
                "zipcode": "25301"
            },
            {
                "city": "Charlotte",
                "country": "Estados Unidos",
                "details": null,
                "google_place_id": "ChIJgRo4_MQfVIgRZNFDv-ZQRog",
                "id": 89,
                "iso_3166_1_alpha_2_code": null,
                "latitude": 35.2270869,
                "location_type": "Physical",
                "location_type_id": 1,
                "longitude": -80.8431267,
                "name": "North Carolina",
                "postal_code": "28202",
                "state": "Carolina del Norte",
                "zipcode": "28202"
            },
            {
                "city": "Columbia",
                "country": "Estados Unidos",
                "details": null,
                "google_place_id": "ChIJ49ExeWml-IgRlvp5s_QIKPM",
                "id": 90,
                "iso_3166_1_alpha_2_code": null,
                "latitude": 34.0008322,
                "location_type": "Physical",
                "location_type_id": 1,
                "longitude": -81.035147,
                "name": "South Carolina",
                "postal_code": "29201",
                "state": "Carolina del Sur",
                "zipcode": "29201"
            },
            {
                "city": "Atlanta",
                "country": "Estados Unidos",
                "details": null,
                "google_place_id": "ChIJjQmTaV0E9YgRC2MLmS_e_mY",
                "id": 91,
                "iso_3166_1_alpha_2_code": null,
                "latitude": 33.7501275,
                "location_type": "Physical",
                "location_type_id": 1,
                "longitude": -84.3885209,
                "name": "Georgia",
                "postal_code": " 30303",
                "state": "Georgia",
                "zipcode": " 30303"
            },
            {
                "city": "Miami",
                "country": "Estados Unidos",
                "details": null,
                "google_place_id": "ChIJo4H8b4622YgRiAKRIc361Yg",
                "id": 92,
                "iso_3166_1_alpha_2_code": null,
                "latitude": 25.7667897,
                "location_type": "Physical",
                "location_type_id": 1,
                "longitude": -80.2070328,
                "name": "Florida",
                "postal_code": "33130",
                "state": "Florida",
                "zipcode": "33130"
            },
            {
                "city": "MIDDLE CITY EAST",
                "country": "Estados Unidos",
                "details": null,
                "google_place_id": "ChIJGwE_OC7GxokRgxJe_sBzCEE",
                "id": 93,
                "iso_3166_1_alpha_2_code": null,
                "latitude": 39.9556241,
                "location_type": "Physical",
                "location_type_id": 1,
                "longitude": -75.1647529,
                "name": "Pennsylvania",
                "postal_code": "19102",
                "state": "Pennsylvania",
                "zipcode": "19102"
            },
            {
                "city": "Nueva York",
                "country": "Estados Unidos",
                "details": null,
                "google_place_id": "ChIJnQClza9ZwokRQ37NEa49KoQ",
                "id": 94,
                "iso_3166_1_alpha_2_code": null,
                "latitude": 40.7536854,
                "location_type": "Physical",
                "location_type_id": 1,
                "longitude": -73.9991637,
                "name": "New York",
                "postal_code": "10001",
                "state": "Nueva York",
                "zipcode": "10001"
            },
            {
                "city": "Portland",
                "country": "Estados Unidos",
                "details": null,
                "google_place_id": "ChIJx6F12WycskwRV8dNqEI1FX0",
                "id": 95,
                "iso_3166_1_alpha_2_code": null,
                "latitude": 43.6629964,
                "location_type": "Physical",
                "location_type_id": 1,
                "longitude": -70.2568775,
                "name": "Maine",
                "postal_code": "04101",
                "state": "Maine",
                "zipcode": "04101"
            },
            {
                "city": "Burlington",
                "country": "Estados Unidos",
                "details": null,
                "google_place_id": "ChIJ2S6KupV6ykwR1oY_Q4GPAmo",
                "id": 96,
                "iso_3166_1_alpha_2_code": null,
                "latitude": 44.4758442,
                "location_type": "Physical",
                "location_type_id": 1,
                "longitude": -73.212121,
                "name": "Vermont",
                "postal_code": "05401",
                "state": "Vermont",
                "zipcode": "05401"
            },
            {
                "city": "Manchester",
                "country": "Estados Unidos",
                "details": null,
                "google_place_id": "ChIJG1aTBthO4okROo6eL2UXWj0",
                "id": 97,
                "iso_3166_1_alpha_2_code": null,
                "latitude": 42.9901899,
                "location_type": "Physical",
                "location_type_id": 1,
                "longitude": -71.4625883,
                "name": "New Hampshire",
                "postal_code": "03101",
                "state": "Nuevo Hampshire",
                "zipcode": "03101"
            },
            {
                "city": "Hartford",
                "country": "Estados Unidos",
                "details": null,
                "google_place_id": "ChIJ6_d6zmRT5okR2UYAJBbL4P4",
                "id": 98,
                "iso_3166_1_alpha_2_code": null,
                "latitude": 41.7665502,
                "location_type": "Physical",
                "location_type_id": 1,
                "longitude": -72.6757236,
                "name": "Connecticut",
                "postal_code": "06103",
                "state": "Connecticut",
                "zipcode": "06103"
            },
            {
                "city": "Boston",
                "country": "Estados Unidos",
                "details": null,
                "google_place_id": "ChIJHS8sNINw44kRL2zr4Pt6118",
                "id": 99,
                "iso_3166_1_alpha_2_code": null,
                "latitude": 42.3548561,
                "location_type": "Physical",
                "location_type_id": 1,
                "longitude": -71.0661193,
                "name": "Massachusetts",
                "postal_code": "02108",
                "state": "Massachusetts",
                "zipcode": "02108"
            },
            {
                "city": "Providence",
                "country": "Estados Unidos",
                "details": null,
                "google_place_id": "ChIJjxOfQRNF5IkRVd1GvodI1mQ",
                "id": 100,
                "iso_3166_1_alpha_2_code": null,
                "latitude": 41.816736,
                "location_type": "Physical",
                "location_type_id": 1,
                "longitude": -71.4091563,
                "name": "Rhode Island",
                "postal_code": "02903",
                "state": "Rhode Island",
                "zipcode": "02903"
            },
            {
                "city": "Wilmington",
                "country": "Estados Unidos",
                "details": null,
                "google_place_id": "ChIJIabrTVwFx4kRaqQlYfLHNj4",
                "id": 101,
                "iso_3166_1_alpha_2_code": null,
                "latitude": 39.7312603,
                "location_type": "Physical",
                "location_type_id": 1,
                "longitude": -75.5451379,
                "name": "Delaware",
                "postal_code": "19801",
                "state": "Delaware",
                "zipcode": "19801"
            },
            {
                "city": "Bismarck",
                "country": "Estados Unidos",
                "details": null,
                "google_place_id": "ChIJ7-fDDSp511IRym1W-ETD5VI",
                "id": 102,
                "iso_3166_1_alpha_2_code": null,
                "latitude": 46.8243438,
                "location_type": "Physical",
                "location_type_id": 1,
                "longitude": -100.659753,
                "name": "North Dakota",
                "postal_code": "58501",
                "state": "Dakota del Norte",
                "zipcode": "58501"
            },
            {
                "city": "Pierre",
                "country": "Estados Unidos",
                "details": null,
                "google_place_id": "ChIJd9QpyIIKgIcR1NVqXqO7bW4",
                "id": 103,
                "iso_3166_1_alpha_2_code": null,
                "latitude": 44.3683222,
                "location_type": "Physical",
                "location_type_id": 1,
                "longitude": -100.3510108,
                "name": "South Dakota",
                "postal_code": "57501",
                "state": "Dakota del Sur",
                "zipcode": "57501"
            },
            {
                "city": "Lincoln",
                "country": "Estados Unidos",
                "details": null,
                "google_place_id": "ChIJdU9DcB2_locRWosTn1RgSrE",
                "id": 104,
                "iso_3166_1_alpha_2_code": null,
                "latitude": 40.8298688,
                "location_type": "Physical",
                "location_type_id": 1,
                "longitude": -96.7012424,
                "name": "Nebraska",
                "postal_code": "68508",
                "state": "Nebraska",
                "zipcode": "68508"
            },
            {
                "city": "Topeka",
                "country": "Estados Unidos",
                "details": null,
                "google_place_id": "ChIJ6S9HGwgDv4cRB2NvejbiRJ4",
                "id": 105,
                "iso_3166_1_alpha_2_code": null,
                "latitude": 39.0555831,
                "location_type": "Physical",
                "location_type_id": 1,
                "longitude": -95.6747209,
                "name": "Kansas",
                "postal_code": "66603",
                "state": "Kansas",
                "zipcode": "66603"
            },
            {
                "city": "Oklahoma City",
                "country": "Estados Unidos",
                "details": null,
                "google_place_id": "ChIJ8Q0F1S0XsocRvQilry58J7E",
                "id": 106,
                "iso_3166_1_alpha_2_code": null,
                "latitude": 35.4711808,
                "location_type": "Physical",
                "location_type_id": 1,
                "longitude": -97.516602,
                "name": "Oklahoma",
                "postal_code": "73102",
                "state": "Oklahoma",
                "zipcode": "73102"
            },
            {
                "city": "Saint Paul",
                "country": "Estados Unidos",
                "details": null,
                "google_place_id": "ChIJ5TFxPk_VslIR52oheiF0mHg",
                "id": 107,
                "iso_3166_1_alpha_2_code": null,
                "latitude": 44.9513188,
                "location_type": "Physical",
                "location_type_id": 1,
                "longitude": -93.0901841,
                "name": "Minnesota",
                "postal_code": "55101",
                "state": "Minnesota",
                "zipcode": "55101"
            },
            {
                "city": "Des Moines",
                "country": "Estados Unidos",
                "details": null,
                "google_place_id": "ChIJp6mHf_2Y7ocRVyUSuOn8bK0",
                "id": 108,
                "iso_3166_1_alpha_2_code": null,
                "latitude": 41.5816456,
                "location_type": "Physical",
                "location_type_id": 1,
                "longitude": -93.6243133,
                "name": "Iowa",
                "postal_code": "50309",
                "state": "Iowa",
                "zipcode": "50309"
            },
            {
                "city": "San Luis",
                "country": "Estados Unidos",
                "details": null,
                "google_place_id": "ChIJS0hgpRiz2IcR1Asy4nX_a00",
                "id": 109,
                "iso_3166_1_alpha_2_code": null,
                "latitude": 38.6305392,
                "location_type": "Physical",
                "location_type_id": 1,
                "longitude": -90.1928216,
                "name": "Missouri",
                "postal_code": "63101",
                "state": "Misuri",
                "zipcode": "63101"
            },
            {
                "city": "Little Rock",
                "country": "Estados Unidos",
                "details": null,
                "google_place_id": "ChIJY-T9xWa70ocReg_y5fH5BHY",
                "id": 111,
                "iso_3166_1_alpha_2_code": null,
                "latitude": 34.7499657,
                "location_type": "Physical",
                "location_type_id": 1,
                "longitude": -92.2852014,
                "name": "Arkansas",
                "postal_code": "72201",
                "state": "Arkansas",
                "zipcode": "72201"
            },
            {
                "city": "Nueva Orleans",
                "country": "Estados Unidos",
                "details": null,
                "google_place_id": "ChIJLfJRLOKlIIYRPA-y7LK8hZc",
                "id": 112,
                "iso_3166_1_alpha_2_code": null,
                "latitude": 29.9595769,
                "location_type": "Physical",
                "location_type_id": 1,
                "longitude": -90.0770127,
                "name": "Louisiana",
                "postal_code": "70112",
                "state": "Luisiana",
                "zipcode": "70112"
            },
            {
                "city": "Madison",
                "country": "Estados Unidos",
                "details": null,
                "google_place_id": "ChIJwXDRVRNTBogRkiLfSylmG8M",
                "id": 113,
                "iso_3166_1_alpha_2_code": null,
                "latitude": 43.0833196,
                "location_type": "Physical",
                "location_type_id": 1,
                "longitude": -89.3724769,
                "name": "Wisconsin",
                "postal_code": "53703",
                "state": "Wisconsin",
                "zipcode": "53703"
            },
            {
                "city": "Chicago",
                "country": "Estados Unidos",
                "details": null,
                "google_place_id": "ChIJ0e48IoEuDogRd2gqouiqNbA",
                "id": 114,
                "iso_3166_1_alpha_2_code": null,
                "latitude": 41.8062766,
                "location_type": "Physical",
                "location_type_id": 1,
                "longitude": -87.6482474,
                "name": "Illinois",
                "postal_code": "60609",
                "state": "Illinois",
                "zipcode": "60609"
            },
            {
                "city": "Jackson",
                "country": "Estados Unidos",
                "details": null,
                "google_place_id": "ChIJV5IDQ0oyKIYR7NNJ5kYXeQs",
                "id": 117,
                "iso_3166_1_alpha_2_code": null,
                "latitude": 32.2907734,
                "location_type": "Physical",
                "location_type_id": 1,
                "longitude": -90.1846217,
                "name": "Mississippi",
                "postal_code": "39201",
                "state": "Misisipi",
                "zipcode": "39201"
            },
            {
                "city": "Managua",
                "country": "Nicaragua",
                "details": null,
                "google_place_id": "ChIJLQ1uBhRWcY8R_0-5t07v5As",
                "id": 119,
                "iso_3166_1_alpha_2_code": "NI",
                "latitude": 12.1575472,
                "location_type": "Physical",
                "location_type_id": 1,
                "longitude": -86.2710885,
                "name": "Nicaragua",
                "postal_code": "11001",
                "state": "Managua",
                "zipcode": "11001"
            },
            {
                "city": "San Salvador",
                "country": "El Salvador",
                "details": null,
                "google_place_id": "ChIJXXcRtGcwY48Rllz7k4iXdR8",
                "id": 125,
                "iso_3166_1_alpha_2_code": "SV",
                "latitude": 13.6929403,
                "location_type": "Physical",
                "location_type_id": 1,
                "longitude": -89.2181911,
                "name": "El Salvador",
                "postal_code": "01001",
                "state": "San Salvador",
                "zipcode": "01001"
            },
            {
                "city": "Phoenix",
                "country": "Estados Unidos",
                "details": null,
                "google_place_id": "ChIJjfVitRgSK4cRJdDJ-VoTh-M",
                "id": 127,
                "iso_3166_1_alpha_2_code": null,
                "latitude": 33.4499672,
                "location_type": "Physical",
                "location_type_id": 1,
                "longitude": -112.0702225,
                "name": "Arizona",
                "postal_code": "85001",
                "state": "Arizona",
                "zipcode": "85001"
            },
            {
                "city": "Denver",
                "country": "Estados Unidos",
                "details": null,
                "google_place_id": "ChIJwTF6RcN4bIcRWd8aCrbRvX0",
                "id": 128,
                "iso_3166_1_alpha_2_code": null,
                "latitude": 39.7541032,
                "location_type": "Physical",
                "location_type_id": 1,
                "longitude": -105.0002242,
                "name": "Colorado",
                "postal_code": "80202",
                "state": "Colorado",
                "zipcode": "80202"
            },
            {
                "city": "Boise",
                "country": "Estados Unidos",
                "details": null,
                "google_place_id": "ChIJ9bbM7fv7rlQRiGOGv5F44kM",
                "id": 129,
                "iso_3166_1_alpha_2_code": null,
                "latitude": 43.6624385,
                "location_type": "Physical",
                "location_type_id": 1,
                "longitude": -116.1630431,
                "name": "Idaho",
                "postal_code": "83702",
                "state": "Idaho",
                "zipcode": "83702"
            },
            {
                "city": "Baltimore",
                "country": "Estados Unidos",
                "details": null,
                "google_place_id": "ChIJachBmZoEyIkRMv7IXTFAS1I",
                "id": 130,
                "iso_3166_1_alpha_2_code": null,
                "latitude": 39.2994145,
                "location_type": "Physical",
                "location_type_id": 1,
                "longitude": -76.6037222,
                "name": "Maryland",
                "postal_code": "21202",
                "state": "Maryland",
                "zipcode": "21202"
            },
            {
                "city": "Helena",
                "country": "Estados Unidos",
                "details": null,
                "google_place_id": "ChIJ16KH7R5XW1MR7wDwX-teAJs",
                "id": 131,
                "iso_3166_1_alpha_2_code": null,
                "latitude": 46.5570751,
                "location_type": "Physical",
                "location_type_id": 1,
                "longitude": -112.2285158,
                "name": "Montana",
                "postal_code": "59601",
                "state": "Montana",
                "zipcode": "59601"
            },
            {
                "city": "Las Vegas",
                "country": "Estados Unidos",
                "details": null,
                "google_place_id": "ChIJI9qHfWvDyIAR8JvY-jJ57_s",
                "id": 132,
                "iso_3166_1_alpha_2_code": null,
                "latitude": 36.1697096,
                "location_type": "Physical",
                "location_type_id": 1,
                "longitude": -115.1236952,
                "name": "Nevada",
                "postal_code": "89101",
                "state": "Nevada",
                "zipcode": "89101"
            },
            {
                "city": "Pojoaque",
                "country": "Estados Unidos",
                "details": null,
                "google_place_id": "ChIJZQbfExtEGIcRxdJ-W6Gs3sI",
                "id": 133,
                "iso_3166_1_alpha_2_code": null,
                "latitude": 35.7135437,
                "location_type": "Physical",
                "location_type_id": 1,
                "longitude": -105.8407722,
                "name": "New Mexico",
                "postal_code": "87501",
                "state": "Nuevo México",
                "zipcode": "87501"
            },
            {
                "city": "Portland",
                "country": "Estados Unidos",
                "details": null,
                "google_place_id": "ChIJi8MjqD8KlVQRsyr5ZtaBLMI",
                "id": 134,
                "iso_3166_1_alpha_2_code": null,
                "latitude": 45.505603,
                "location_type": "Physical",
                "location_type_id": 1,
                "longitude": -122.6882145,
                "name": "Oregon",
                "postal_code": "97201",
                "state": "Oregon",
                "zipcode": "97201"
            },
            {
                "city": "Salt Lake City",
                "country": "Estados Unidos",
                "details": null,
                "google_place_id": "ChIJfdgAHhz1UocRj2HlI8Je47o",
                "id": 135,
                "iso_3166_1_alpha_2_code": null,
                "latitude": 40.7563925,
                "location_type": "Physical",
                "location_type_id": 1,
                "longitude": -111.8985922,
                "name": "Utah",
                "postal_code": "84101",
                "state": "Utah",
                "zipcode": "84101"
            },
            {
                "city": "Seattle",
                "country": "Estados Unidos",
                "details": null,
                "google_place_id": "ChIJdX85S7RqkFQRE9EwXW31xhE",
                "id": 136,
                "iso_3166_1_alpha_2_code": null,
                "latitude": 47.6084921,
                "location_type": "Physical",
                "location_type_id": 1,
                "longitude": -122.336407,
                "name": "Washington",
                "postal_code": "98101",
                "state": "Washington",
                "zipcode": "98101"
            },
            {
                "city": "Base de la Fuerza Aérea Warren",
                "country": "Estados Unidos",
                "details": null,
                "google_place_id": "ChIJ-aNaSogtb4cRiVRIHjJfeR8",
                "id": 138,
                "iso_3166_1_alpha_2_code": null,
                "latitude": 41.1400096,
                "location_type": "Physical",
                "location_type_id": 1,
                "longitude": -104.8201078,
                "name": "Wyoming",
                "postal_code": "82001",
                "state": "Wyoming",
                "zipcode": "82001"
            },
            {
                "city": "Panamá",
                "country": "Panamá",
                "details": null,
                "google_place_id": "ChIJYwPo2_GorI8RDsFC8PFdoqs",
                "id": 139,
                "iso_3166_1_alpha_2_code": "PA",
                "latitude": 8.9823792,
                "location_type": "Physical",
                "location_type_id": 1,
                "longitude": -79.5198696,
                "name": "Panama",
                "postal_code": "0801",
                "state": "Provincia de Panamá",
                "zipcode": "0801"
            },
            {
                "city": "Spring",
                "country": "United States",
                "details": null,
                "google_place_id": "EjcyMDAwOCBDaGFtcGlvbiBGb3Jlc3QgRHIgc3RlIDEwMywgU3ByaW5nLCBUWCA3NzM3OSwgVVNBIiMaIQoWChQKEgnTJ3NeWi1HhhELLWelM214zRIHc3RlIDEwMw",
                "id": 140,
                "iso_3166_1_alpha_2_code": "US",
                "latitude": 30.0544574,
                "location_type": "Physical",
                "location_type_id": 1,
                "longitude": -95.5691903,
                "name": "Houston",
                "postal_code": "77379",
                "state": "Texas",
                "zipcode": "77379"
            }
        ]
    },
    "status": 200,
    "headers": {
        "x-xss-protection": "0",
        "x-content-type-options": "nosniff",
        "x-download-options": "noopen",
        "x-frame-options": "SAMEORIGIN",
        "x-dns-prefetch-control": "off",
        "strict-transport-security": "max-age=5184000; includeSubDomains",
        "content-security-policy": "default-src 'self' http://localhost:3000 http://localhost:3003 http://localhost:3009;child-src 'self';connect-src 'self' https://*.google-analytics.com https://*.sentry.io http://localhost:3000 http://localhost:3003 ws://localhost:3003/ http://localhost:3009 https://*.posthog.com ;font-src 'self' https://*.googleapis.com https://*.gstatic.com;frame-src 'self' https://accounts.google.com http://localhost:3000 http://localhost:3003 http://localhost:3009 https://www.youtube.com;img-src 'self' data: http://localhost:3000 http://localhost:3003 https://*.google-analytics.com https://*.googleapis.com https://*.posthog.com https://img.logo.dev https://*.ytimg.com;manifest-src 'self';media-src 'self';object-src 'self';script-src 'self' 'unsafe-eval' 'unsafe-inline' http://localhost:3000 http://localhost:3003 https://*.google-analytics.com https://*.googleapis.com https://apis.google.com https://*.posthog.com https://www.youtube.com ;style-src blob: 'self' 'unsafe-inline' https://*.googleapis.com http://localhost:3000 http://localhost:3003;worker-src blob: 'self' http://localhost:3000 http://localhost:3003 https://*.googleapis.com https://*.posthog.com;base-uri 'self';form-action 'self';frame-ancestors 'self';script-src-attr 'none';upgrade-insecure-requests",
        "access-control-allow-origin": "*",
        "access-control-expose-headers": "Authorization, Etag, Content-Type, Content-Length, X-Nango-Signature, X-RateLimit-Limit, X-RateLimit-Remaining, X-RateLimit-Reset",
        "x-ratelimit-limit": "3500",
        "x-ratelimit-remaining": "3491",
        "x-ratelimit-reset": "1747881450",
        "date": "Thu, 22 May 2025 02:37:19 GMT",
        "content-type": "application/json",
        "transfer-encoding": "chunked",
        "connection": "keep-alive",
        "server": "Apache",
        "vary": "Accept-Encoding"
    }
}
